City_ID,City,Lat,Lng,Max Temp,Humidity,Cloudiness,Wind Speed,Country,Date
0,barrow,71.2906,-156.7887,28.42,93,90,18.41,US,1623076122
1,pisco,-13.7,-76.2167,64.45,77,90,3.44,PE,1623076452
2,arraial do cabo,-22.9661,-42.0278,76.96,78,40,11.5,BR,1623076452
3,kapaa,22.0752,-159.319,75.52,81,75,7.0,US,1623076453
4,saint-philippe,-21.3585,55.7679,72.99,76,87,16.08,RE,1623076453
5,wuan,31.6836,112.0044,77.94,59,100,6.67,CN,1623076453
6,almaznyy,48.0448,40.045,68.14,76,100,10.09,RU,1623076454
7,vardo,70.3705,31.1107,56.95,76,0,10.36,NO,1623076454
8,new norfolk,-42.7826,147.0587,55.76,56,99,8.05,AU,1623076454
9,port elizabeth,-33.918,25.5701,79.09,24,0,10.36,ZA,1623076454
10,peniche,39.3558,-9.3811,80.55,73,3,16.42,PT,1623076455
11,linxia,35.6003,103.2064,58.48,66,39,5.26,CN,1623076455
12,jamestown,42.097,-79.2353,81.01,70,75,5.01,US,1623076455
13,busselton,-33.65,115.3333,48.09,84,74,10.49,AU,1623076456
14,pudozh,61.8099,36.5345,66.0,32,44,8.93,RU,1623076456
15,butaritari,3.0707,172.7902,81.14,73,46,3.33,KI,1623076456
16,punta arenas,-53.15,-70.9167,37.51,87,75,8.19,CL,1623076456
17,la salle,41.3334,-89.0918,76.01,76,90,9.22,US,1623076457
18,nola,40.922,14.5329,78.71,56,84,4.0,IT,1623076457
19,nador,35.174,-2.9287,80.67,62,14,11.03,MA,1623076457
20,nalut,30.3333,10.85,105.46,8,7,9.37,LY,1623076458
21,mataura,-46.1927,168.8643,38.91,95,2,2.51,NZ,1623076458
22,ushuaia,-54.8,-68.3,40.66,81,40,2.3,AR,1623076181
23,ancud,-41.8697,-73.8203,48.22,83,100,16.37,CL,1623076458
24,saldanha,-33.0117,17.9442,82.45,44,99,11.54,ZA,1623076459
25,albany,42.6001,-73.9662,86.63,61,0,4.23,US,1623076160
26,sorland,67.667,12.6934,53.46,82,90,6.91,NO,1623076459
27,narsaq,60.9167,-46.05,55.62,52,100,11.48,GL,1623076459
28,adeje,28.1227,-16.726,80.17,61,20,8.01,ES,1623076460
29,rikitea,-23.1203,-134.9692,76.26,82,86,20.4,PF,1623076460
30,victoria,22.2855,114.1577,84.38,83,44,1.99,HK,1623076460
31,kapuskasing,49.4169,-82.4331,78.89,50,75,13.8,CA,1623076460
32,saint george,37.1041,-113.5841,82.87,15,1,1.99,US,1623076461
33,falkenberg,56.9055,12.4912,65.97,84,100,7.16,SE,1623076461
34,tiksi,71.6872,128.8694,36.09,85,73,5.21,RU,1623076461
35,avarua,-21.2078,-159.775,68.05,77,36,3.44,CK,1623076461
36,certeze,47.9,23.4667,72.37,63,54,4.12,RO,1623076462
37,bredasdorp,-34.5322,20.0403,76.32,27,100,4.83,ZA,1623076462
38,thompson,55.7435,-97.8558,46.56,61,40,10.36,CA,1623076462
39,port lincoln,-34.7333,135.8667,49.35,74,92,19.44,AU,1623076463
40,shunyi,40.125,116.6453,80.08,64,0,4.47,CN,1623076463
41,sawtell,-30.3833,153.1,57.22,86,60,12.66,AU,1623076463
42,hermanus,-34.4187,19.2345,67.87,51,100,4.47,ZA,1623076463
43,ati,13.2154,18.3353,105.37,14,31,4.54,TD,1623076464
44,lodja,-3.4833,23.4333,89.11,42,65,1.86,CD,1623076464
45,asyut,27.181,31.1837,94.39,11,4,17.16,EG,1623076464
46,east london,-33.0153,27.9116,72.54,40,0,10.36,ZA,1623076465
47,vaini,-21.2,-175.2,69.96,100,40,4.61,TO,1623076465
48,miandrivazo,-19.5167,45.4667,79.05,39,6,5.88,MG,1623076465
49,san ramon,37.7799,-121.978,58.64,81,1,7.0,US,1623076465
50,harindanga,22.0383,88.3214,76.98,78,100,19.46,IN,1623076466
51,mar del plata,-38.0023,-57.5575,57.09,84,0,1.99,AR,1623076466
52,paragominas,-2.9667,-47.4833,88.83,54,71,3.06,BR,1623076466
53,coihaique,-45.5752,-72.0662,44.55,87,90,6.91,CL,1623076467
54,namatanai,-3.6667,152.4333,78.67,81,77,3.2,PG,1623076467
55,airai,-8.9266,125.4092,57.06,90,60,2.33,TL,1623076467
56,ivankiv,50.9386,29.8943,73.56,69,56,7.27,UA,1623076467
57,malinovskiy,61.1953,62.8397,49.89,67,34,9.95,RU,1623076468
58,kingsville,27.5159,-97.8561,86.09,82,75,5.99,US,1623076468
59,zinder,13.8072,8.9881,104.49,13,48,8.81,NE,1623076468
60,khorixas,-20.3667,14.9667,78.13,23,0,18.66,NA,1623076468
61,tasiilaq,65.6145,-37.6368,46.56,87,76,3.98,GL,1623076469
62,olafsvik,64.8945,-23.7142,47.39,87,100,0.94,IS,1623076469
63,emet,39.343,29.2585,72.39,39,78,6.13,TR,1623076469
64,sao jose da coroa grande,-8.8978,-35.1478,82.17,66,76,10.18,BR,1623076470
65,lagoa,39.05,-27.9833,64.67,90,95,14.61,PT,1623076470
66,kholodnyy,62.7167,147.95,52.39,78,98,7.87,RU,1623076470
67,hobart,-42.8794,147.3294,56.12,71,90,4.0,AU,1623076309
68,souillac,-20.5167,57.5167,72.36,88,40,20.04,MU,1623076470
69,deputatskiy,69.3,139.9,39.74,93,100,0.92,RU,1623076471
70,lerwick,60.1545,-1.1494,57.2,78,100,7.29,GB,1623076471
71,qaanaaq,77.484,-69.3632,39.65,89,6,3.51,GL,1623076471
72,portel,-1.9356,-50.8211,86.5,62,53,3.51,BR,1623076472
73,san cristobal,7.7669,-72.225,71.78,82,100,5.48,VE,1623076472
74,faanui,-16.4833,-151.75,79.7,77,13,11.45,PF,1623076472
75,lasa,46.6166,10.7002,72.48,75,89,2.15,IT,1623076472
76,cherskiy,68.75,161.3,45.45,63,100,3.98,RU,1623076473
77,north bend,43.4065,-124.2243,53.85,86,1,6.91,US,1623076176
78,shagonar,51.5333,92.8,55.36,64,0,0.67,RU,1623076473
79,bilibino,68.0546,166.4372,55.99,62,60,3.13,RU,1623076473
80,chuy,-33.6971,-53.4616,61.16,64,67,11.56,UY,1623076474
81,lac du bonnet,50.2536,-96.0612,64.74,60,64,0.74,CA,1623076474
82,panzhihua,26.5851,101.7128,74.01,80,98,2.86,CN,1623076474
83,cape town,-33.9258,18.4232,81.01,17,0,12.35,ZA,1623076379
84,leningradskiy,69.3833,178.4167,33.78,79,26,10.85,RU,1623076475
85,andros town,24.7,-77.7667,84.16,71,100,17.9,BS,1623076475
86,atuona,-9.8,-139.0333,79.18,75,29,13.02,PF,1623076475
87,dikson,73.5069,80.5464,30.97,95,100,10.45,RU,1623076475
88,kodiak,57.79,-152.4072,51.31,54,1,3.44,US,1623076476
89,zalantun,48.0,122.7167,61.14,55,10,3.36,CN,1623076476
90,kavieng,-2.5744,150.7967,81.28,75,100,5.86,PG,1623076476
91,panjakent,39.4952,67.6093,87.6,31,2,4.65,TJ,1623076477
92,port blair,11.6667,92.75,83.08,79,100,11.86,IN,1623076477
93,haines junction,60.7522,-137.5108,42.75,93,100,2.3,CA,1623076477
94,komsomolskiy,40.4272,71.7189,90.82,25,100,18.41,UZ,1623076477
95,pedernales,18.0384,-71.744,86.59,53,100,4.79,DO,1623076478
96,guiratinga,-16.3494,-53.7583,85.37,41,17,6.35,BR,1623076478
97,lishui,28.4604,119.9103,67.62,89,100,3.09,CN,1623076478
98,xiaoweizhai,26.1903,107.5125,70.66,74,84,2.71,CN,1623076478
99,opuwo,-18.0607,13.84,78.35,18,0,9.69,NA,1623076479
100,pevek,69.7008,170.3133,38.57,87,100,3.96,RU,1623076479
101,zemaiciu naumiestis,55.3592,21.7022,69.69,68,77,5.84,LT,1623076479
102,samarai,-10.6167,150.6667,76.35,93,100,17.05,PG,1623076480
103,lebu,-37.6167,-73.65,53.13,61,65,12.68,CL,1623076480
104,nikolskoye,59.7035,30.7861,69.69,53,13,7.4,RU,1623076480
105,ganzhou,28.8184,115.4327,77.29,84,100,1.92,CN,1623076480
106,cidreira,-30.1811,-50.2056,64.36,74,100,15.57,BR,1623076481
107,pundaguitan,6.3711,126.1689,81.93,78,100,7.14,PH,1623076481
108,kosh-agach,50.0,88.6667,56.86,26,62,1.77,RU,1623076481
109,havoysund,70.9963,24.6622,59.88,60,89,2.3,NO,1623076482
110,lata,40.1629,-8.3327,83.05,49,0,11.39,PT,1623076482
111,babati,-4.2167,35.75,69.33,59,100,0.78,TZ,1623076482
112,dongying,37.4564,118.4856,73.53,66,99,8.28,CN,1623076482
113,vostok,46.4856,135.8833,51.62,95,90,4.97,RU,1623076483
114,carnarvon,-24.8667,113.6333,68.07,64,100,9.22,AU,1623076483
115,saint-augustin,51.226,-58.6502,49.71,71,100,18.99,CA,1623076483
116,divinopolis,-20.1389,-44.8839,80.49,46,10,1.9,BR,1623076484
117,talnakh,69.4865,88.3972,32.09,95,100,4.63,RU,1623076484
118,deer lake,49.1667,-57.4316,62.46,55,75,8.05,CA,1623076484
119,marsh harbour,26.5412,-77.0636,79.72,75,100,16.6,BS,1623076484
120,vestmanna,62.1564,-7.1664,50.92,93,75,13.09,FO,1623076485
121,walvis bay,-22.9575,14.5053,77.95,29,1,12.03,NA,1623076485
122,umea,63.8284,20.2597,64.33,72,40,6.91,SE,1623076485
123,loreto,22.2667,-101.9667,72.93,40,6,4.27,MX,1623076486
124,santa isabel,-23.3156,-46.2214,70.56,61,65,4.34,BR,1623076340
125,urucara,-2.5364,-57.76,90.0,52,57,4.16,BR,1623076486
126,warkworth,-36.4,174.6667,58.86,88,97,25.81,NZ,1623076274
127,maloy,61.9353,5.1136,72.07,85,13,17.4,NO,1623076486
128,madang,-5.2246,145.7966,76.44,90,100,1.36,PG,1623076487
129,castro,-24.7911,-50.0119,58.86,95,100,8.14,BR,1623076487
130,chokurdakh,70.6333,147.9167,37.15,79,100,13.51,RU,1623076487
131,yellowknife,62.456,-114.3525,39.33,93,90,8.99,CA,1623076487
132,hilo,19.7297,-155.09,73.27,90,90,9.22,US,1623075968
133,grand forks,47.9417,-97.4337,69.78,41,75,11.5,US,1623076488
134,nyurba,63.2842,118.3319,45.84,68,89,4.09,RU,1623076393
135,colares,38.7992,-9.4469,80.28,57,20,14.97,PT,1623076488
136,tuktoyaktuk,69.4541,-133.0374,30.2,86,40,11.5,CA,1623076489
137,nemuro,43.3236,145.575,51.84,83,0,6.29,JP,1623076489
138,zunheboto,25.9667,94.5167,64.6,96,100,2.01,IN,1623076489
139,dalvik,65.9702,-18.5286,51.73,83,100,4.76,IS,1623076489
140,norman wells,65.282,-126.8329,42.84,61,75,4.61,CA,1623076490
141,bonavista,48.6499,-53.1147,57.2,63,100,11.68,CA,1623076490
142,avera,33.194,-82.5271,80.65,70,100,9.01,US,1623076490
143,faya,18.3851,42.4509,82.92,32,83,9.86,SA,1623076490
144,tuatapere,-46.1333,167.6833,43.23,83,1,3.33,NZ,1623076491
145,batemans bay,-35.7167,150.1833,56.19,80,100,7.18,AU,1623076491
146,puerto carreno,6.189,-67.4859,79.88,79,99,3.42,CO,1623076276
147,kapit,2.0167,112.9333,77.97,84,100,0.81,MY,1623076491
148,bathsheba,13.2167,-59.5167,88.41,55,40,20.56,BB,1623076492
149,bambous virieux,-20.3428,57.7575,72.21,88,40,21.16,MU,1623076492
150,rio gallegos,-51.6226,-69.2181,35.65,87,0,9.22,AR,1623076298
151,fortuna,40.5982,-124.1573,55.65,67,90,1.01,US,1623076492
152,buala,-8.145,159.5921,79.2,82,76,5.21,SB,1623076493
153,omboue,-1.5746,9.2618,80.94,80,99,7.99,GA,1623076493
154,mount isa,-20.7333,139.5,51.57,62,4,3.44,AU,1623076265
155,farkhor,37.4922,69.4036,101.28,19,0,4.34,TJ,1623076493
156,mandalgovi,45.7625,106.2708,40.68,74,24,21.36,MN,1623076493
157,kawalu,-7.3817,108.2082,72.23,98,25,1.74,ID,1623076494
158,kirakira,-10.4544,161.9205,78.75,82,86,7.2,SB,1623076494
159,mehran,33.1222,46.1646,99.88,8,0,19.89,IR,1623076494
160,ribeira grande,38.5167,-28.7,68.4,88,40,11.5,PT,1623076495
161,hithadhoo,-0.6,73.0833,83.84,69,56,13.11,MV,1623076495
162,vao,-22.6667,167.4833,69.21,65,67,15.77,NC,1623076495
163,upernavik,72.7868,-56.1549,34.57,93,93,7.61,GL,1623076495
164,lompoc,34.6391,-120.4579,61.09,82,90,2.48,US,1623076496
165,georgetown,5.4112,100.3354,82.89,82,20,1.01,MY,1623076234
166,fayaoue,-20.65,166.5333,72.5,66,100,13.33,NC,1623076496
167,hamilton,39.1834,-84.5333,74.25,94,75,6.85,US,1623076240
168,praia da vitoria,38.7333,-27.0667,70.05,78,40,4.5,PT,1623076496
169,mahebourg,-20.4081,57.7,72.25,88,40,12.66,MU,1623076497
170,turka,49.1541,23.0297,73.26,64,98,8.84,UA,1623076497
171,sweetwater,25.7634,-80.3731,87.03,66,75,1.01,US,1623076263
172,longyearbyen,78.2186,15.6401,37.24,87,75,1.14,SJ,1623076497
173,ola,59.5833,151.2833,41.76,93,100,2.95,RU,1623076498
174,amapa,1.0,-52.0,87.28,53,55,3.78,BR,1623076498
175,lavrentiya,65.5833,-171.0,32.07,87,100,6.76,RU,1623076498
176,fuxin,42.0156,121.6589,66.69,70,100,4.05,CN,1623076499
177,cabo san lucas,22.8909,-109.9124,88.05,52,3,8.52,MX,1623076499
178,taltal,-25.4,-70.4833,67.15,56,0,2.71,CL,1623076499
179,tura,25.5198,90.2201,75.18,95,97,7.67,IN,1623076500
180,bereda,43.2686,-7.5406,83.41,43,100,6.06,ES,1623076500
181,richards bay,-28.783,32.0377,66.02,67,0,11.61,ZA,1623076320
182,evanston,42.0411,-87.6901,77.72,82,90,1.01,US,1623076311
183,ugoofaaru,5.6667,73.0,82.83,76,98,16.71,MV,1623076500
184,miraflores,19.2167,-98.8083,64.87,39,99,2.98,MX,1623076501
185,sao joao da barra,-21.6403,-41.0511,78.89,70,10,2.77,BR,1623076501
186,coahuayana,18.7333,-103.6833,83.68,56,73,1.59,MX,1623076501
187,dicabisagan,17.0818,122.4157,79.79,87,100,3.11,PH,1623076501
188,beringovskiy,63.05,179.3167,34.63,99,100,5.06,RU,1623076502
189,maceio,-9.6658,-35.7353,81.84,69,75,9.44,BR,1623076494
190,marevo,57.3146,32.0804,62.67,75,64,6.89,RU,1623076502
191,payson,40.0444,-111.7321,77.02,31,1,9.66,US,1623076352
192,labuhan,-6.8844,112.2051,80.87,77,97,6.24,ID,1623076505
193,valleyview,55.0667,-117.2859,44.64,100,100,12.66,CA,1623076506
194,chaah,2.249,103.048,77.43,81,75,2.66,MY,1623076506
195,umm kaddadah,13.6017,26.6876,99.28,18,38,15.41,SD,1623076506
196,bratsk,56.1325,101.6142,57.69,93,26,5.73,RU,1623076331
197,srandakan,-7.9386,110.2506,62.73,86,11,2.68,ID,1623076507
198,khatanga,71.9667,102.5,33.64,84,89,4.47,RU,1623076507
199,ashland,40.8167,-82.2665,77.92,85,100,7.25,US,1623076384
200,alyangula,-13.8483,136.4192,71.47,94,84,9.1,AU,1623076507
201,caba,16.4316,120.3446,80.76,82,100,0.81,PH,1623076507
202,yumen,40.2833,97.2,69.01,20,29,11.7,CN,1623076508
203,stade,53.6,9.4833,74.48,92,99,7.72,DE,1623076508
204,saskylakh,71.9167,114.0833,38.95,73,97,11.39,RU,1623076508
205,iqaluit,63.7506,-68.5145,35.33,74,75,5.01,CA,1623076509
206,sumenep,-7.0167,113.8667,80.49,78,100,7.78,ID,1623076509
207,aitape,-3.1374,142.3475,79.09,85,93,3.94,PG,1623076509
208,andenes,69.3143,16.1194,53.58,62,75,17.27,NO,1623076509
209,dolinsk,47.35,142.8,57.06,93,93,4.07,RU,1623076510
210,saint-pierre,-21.3393,55.4781,73.08,75,75,18.41,RE,1623076510
211,renqiu,38.6989,116.0936,71.85,63,100,14.29,CN,1623076510
212,dunkirk,51.05,2.3667,76.57,48,0,7.58,FR,1623076511
213,doume,4.2333,13.45,77.59,87,28,1.83,CM,1623076511
214,stornoway,58.2093,-6.3865,60.76,59,20,11.5,GB,1623076511
215,hirara,24.8,125.2833,80.29,80,100,18.19,JP,1623076511
216,payo,-3.7508,103.6372,72.66,96,79,2.95,ID,1623076512
217,sulangan,11.1373,123.7228,83.82,71,97,6.71,PH,1623076512
218,college,64.8569,-147.8028,54.9,74,20,8.05,US,1623076512
219,namibe,-15.1961,12.1522,81.23,69,20,20.71,AO,1623076512
220,guerrero negro,27.9769,-114.0611,63.91,70,97,11.86,MX,1623076513
221,port alfred,-33.5906,26.891,71.04,47,0,9.93,ZA,1623076513
222,beshpagir,45.0217,42.3808,65.62,80,96,7.29,RU,1623076513
223,abu samrah,35.3029,37.1841,87.35,20,0,15.64,SY,1623076514
224,chunskiy,56.0815,99.6342,53.35,97,51,4.61,RU,1623076514
225,bengkulu,-3.8004,102.2655,76.14,88,23,5.01,ID,1623076514
226,bluff,-46.6,168.3333,44.28,85,3,5.03,NZ,1623076515
227,celestun,20.8667,-90.4,86.14,61,93,11.23,MX,1623076515
228,joshimath,30.5667,79.5667,66.45,74,77,4.61,IN,1623076515
229,marion,39.7684,-86.1555,73.58,91,90,7.14,US,1623076516
230,bartica,6.4,-58.6167,84.52,90,100,3.31,GY,1623076516
231,ngunguru,-35.6167,174.5,57.16,88,100,35.97,NZ,1623076516
232,general artigas,-26.9333,-56.2167,64.29,87,100,6.04,PY,1623076517
233,tabas,33.5959,56.9244,104.45,6,0,13.2,IR,1623076517
234,beauvais,49.4167,2.0,73.72,43,0,1.01,FR,1623076517
235,sorong,-0.8833,131.25,79.21,87,84,6.6,ID,1623076517
236,sitka,57.0531,-135.33,49.89,81,75,3.44,US,1623076518
237,iquitos,-3.7481,-73.2472,77.04,94,75,5.75,PE,1623076349
238,katangli,51.7102,143.2326,37.02,96,100,10.09,RU,1623076518
239,gawler,-34.6,138.7333,54.55,85,83,10.58,AU,1623076270
240,denpasar,-8.65,115.2167,80.26,94,20,1.63,ID,1623076349
241,keti bandar,24.1447,67.4497,86.31,70,0,13.98,PK,1623076518
242,pingyin,36.2831,116.4453,84.27,33,100,5.32,CN,1623076519
243,usinsk,65.9939,57.5281,48.4,38,72,18.16,RU,1623076519
244,vila do maio,15.1333,-23.2167,86.79,84,0,22.41,CV,1623076519
245,lazaro cardenas,17.9583,-102.2,84.97,66,95,1.61,MX,1623076520
246,hami,42.8,93.45,79.79,8,94,2.46,CN,1623076520
247,magdagachi,53.45,125.8,61.3,57,10,4.72,RU,1623076520
248,yerbogachen,61.2767,108.0108,45.34,86,100,6.22,RU,1623076521
249,malanje,-9.5402,16.341,86.38,62,75,3.44,AO,1623076521
250,rancho palos verdes,33.7445,-118.387,63.66,89,90,3.0,US,1623076308
251,kiruna,67.8557,20.2251,59.92,51,90,13.8,SE,1623076521
252,hurghada,27.2574,33.8129,88.9,31,2,19.62,EG,1623076398
253,lucapa,-8.4192,20.7447,85.8,28,3,4.83,AO,1623076522
254,farnborough,51.2942,-0.7557,74.39,65,40,6.91,GB,1623076522
255,valdivia,-39.8142,-73.2459,48.29,72,100,3.04,CL,1623076326
256,nuevo vigia,9.2447,-79.6086,80.1,77,100,2.53,PA,1623076522
257,dingle,10.9995,122.6711,77.34,88,100,2.66,PH,1623076523
258,the valley,18.217,-63.0578,84.81,78,20,13.8,AI,1623076523
259,mount gambier,-37.8333,140.7667,48.11,93,100,10.36,AU,1623076523
260,gusau,12.1628,6.6614,100.94,21,55,9.95,NG,1623076523
261,anadyr,64.75,177.4833,37.9,74,0,4.0,RU,1623076524
262,touros,-5.1989,-35.4608,83.3,66,66,14.29,BR,1623076524
263,dumai,1.6833,101.45,76.5,87,29,1.95,ID,1623076524
264,eregli,37.5133,34.0467,77.32,17,0,11.83,TR,1623076525
265,yulara,-25.2406,130.9889,51.64,35,69,8.05,AU,1623076525
266,kailua,21.4022,-157.7394,75.18,72,90,8.05,US,1623076375
267,elat,29.5581,34.9482,96.64,28,0,16.11,IL,1623076525
268,agua dulce,18.1333,-94.1333,85.78,69,94,3.44,MX,1623076526
269,puerto escondido,15.85,-97.0667,83.23,74,40,6.91,MX,1623076526
270,chapais,49.7834,-74.8492,80.38,45,2,17.4,CA,1623076526
271,sao filipe,14.8961,-24.4956,77.88,63,5,13.04,CV,1623076526
272,katsuura,35.1333,140.3,73.51,83,100,1.9,JP,1623076527
273,ljungby,56.8332,13.9408,73.81,60,98,8.68,SE,1623076527
274,saint-francois,46.4154,3.9054,71.47,66,90,11.5,FR,1623076527
275,kaitangata,-46.2817,169.8464,41.94,85,4,3.2,NZ,1623076527
276,dir,35.2058,71.8756,77.65,47,0,2.13,PK,1623076528
277,geraldton,-28.7667,114.6,59.41,55,100,17.92,AU,1623076528
278,carutapera,-1.195,-46.02,82.99,78,34,5.82,BR,1623076528
279,ahuimanu,21.4447,-157.8378,74.91,74,90,8.05,US,1623076529
280,gutad,14.9274,120.4894,82.31,85,100,5.37,PH,1623076529
281,smithers,54.7804,-127.1743,37.72,100,75,0.0,CA,1623076250
282,le mars,42.7942,-96.1656,81.86,65,1,8.05,US,1623076529
283,palkonda,18.6,83.75,86.85,60,100,4.7,IN,1623076529
284,kitakata,37.65,139.8667,63.32,88,99,1.12,JP,1623076530
285,conde,-7.2597,-34.9075,80.06,78,75,14.65,BR,1623076530
286,lindi,-10.0,39.7167,75.31,67,3,4.25,TZ,1623076530
287,axim,4.8699,-2.2405,83.35,69,51,7.83,GH,1623076531
288,malakal,9.5334,31.6605,88.47,46,94,1.34,SS,1623076531
289,puerto ayora,-0.7393,-90.3518,76.96,87,84,4.0,EC,1623076531
290,tevriz,57.509,72.4042,60.66,88,90,3.11,RU,1623076531
291,honiara,-9.4333,159.95,76.75,87,25,4.56,SB,1623076532
292,suoyarvi,62.0833,32.35,64.51,38,90,9.44,RU,1623076392
293,pangody,65.85,74.4859,44.01,51,97,2.3,RU,1623076532
294,kaeo,-35.1,173.7833,57.33,96,100,24.23,NZ,1623076532
295,salaspils,56.8601,24.3654,73.27,46,42,8.37,LV,1623076533
296,gasa,31.5,34.4667,81.91,50,0,12.24,PS,1623076533
297,verkhnyaya toyma,62.2349,44.9985,62.26,24,0,7.02,RU,1623076533
298,trinidad,-14.8333,-64.9,81.61,61,91,2.62,BO,1623076404
299,atagay,55.1033,99.3875,52.68,93,40,3.2,RU,1623076534
300,binghamton,42.0987,-75.918,85.95,58,1,1.01,US,1623076310
301,ahipara,-35.1667,173.1667,58.64,87,100,16.62,NZ,1623076534
302,khandyga,62.6667,135.6,47.19,79,100,4.79,RU,1623076534
303,kokomo,40.4864,-86.1336,74.21,79,90,1.01,US,1623076534
304,coquimbo,-29.9533,-71.3436,55.13,82,0,3.98,CL,1623076535
305,new plymouth,-39.0667,174.0833,52.32,75,80,8.08,NZ,1623076535
306,provideniya,64.3833,-173.3,33.8,90,85,5.55,RU,1623076535
307,zyryanka,65.75,150.85,49.15,77,86,17.6,RU,1623076536
308,san patricio,28.017,-97.5169,86.09,74,31,21.59,US,1623076536
309,vila velha,-20.3297,-40.2925,82.96,70,20,4.0,BR,1623076472
310,erenhot,43.6475,111.9767,72.93,19,30,6.4,CN,1623076536
311,ukiah,39.1502,-123.2078,63.12,65,1,0.0,US,1623076454
312,lukovetskiy,64.2956,41.9211,57.18,27,10,4.54,RU,1623076537
313,constitucion,-35.3333,-72.4167,57.74,57,32,2.39,CL,1623076537
314,kintampo,8.0563,-1.7306,88.21,49,60,2.64,GH,1623076537
315,warri,5.5167,5.75,91.11,48,17,5.01,NG,1623076537
316,takoradi,4.8845,-1.7554,83.62,67,72,8.34,GH,1623076538
317,ivybridge,50.3904,-3.9191,68.04,65,100,7.81,GB,1623076538
318,shar,49.5886,81.0453,67.1,45,5,7.09,KZ,1623076538
319,antalaha,-14.9003,50.2788,74.73,68,89,11.92,MG,1623076538
320,cairns,-16.9167,145.7667,69.75,93,40,5.75,AU,1623076252
321,road town,18.4167,-64.6167,83.19,78,40,10.36,VG,1623076539
322,benghazi,32.1167,20.0667,78.03,48,23,8.84,LY,1623076539
323,raga,8.4596,25.678,91.4,37,28,2.53,SS,1623076539
324,kiama,-34.6833,150.8667,58.57,73,100,8.99,AU,1623076540
325,qasigiannguit,68.8193,-51.1922,57.45,52,1,1.19,GL,1623076540
326,tome,-36.6167,-72.95,45.21,58,68,3.09,CL,1623076540
327,shirokiy,49.758,129.523,58.78,77,23,5.59,RU,1623076541
328,humaita,-7.5061,-63.0208,90.03,56,78,1.92,BR,1623076541
329,kontagora,10.3999,5.4695,97.32,31,29,7.09,NG,1623076541
330,kitgum,3.2783,32.8867,88.38,28,10,6.04,UG,1623076541
331,cayenne,4.9333,-52.3333,84.24,81,75,3.0,GF,1623076501
332,skovorodino,53.9833,123.9167,62.87,51,9,3.2,RU,1623076542
333,roebourne,-20.7833,117.1333,77.22,56,99,6.93,AU,1623076263
334,katsuyama,36.0617,136.501,66.56,58,37,5.3,JP,1623076542
335,moose jaw,50.4001,-105.5344,59.27,59,75,14.97,CA,1623076543
336,lieksa,63.3167,30.0167,61.38,42,53,9.78,FI,1623076543
337,calatayud,41.3535,-1.6432,84.56,28,11,5.28,ES,1623076543
338,bethel,41.3712,-73.414,91.02,67,1,5.75,US,1623076543
339,zhicheng,30.2956,111.5047,83.77,64,100,3.4,CN,1623076544
340,verkhniy uslon,55.7701,48.9823,75.42,51,73,3.78,RU,1623076544
341,sinnamary,5.3833,-52.95,81.16,82,39,9.17,GF,1623076544
342,ampanihy,-24.7,44.75,65.21,60,0,17.05,MG,1623076545
343,biloela,-24.4167,150.5,54.39,91,0,3.76,AU,1623076545
344,srednekolymsk,67.45,153.6833,49.86,59,100,16.22,RU,1623076545
345,midleton,51.9153,-8.1805,62.06,77,50,15.23,IE,1623076545
346,moose factory,51.2585,-80.6094,80.6,36,1,26.46,CA,1623076546
347,tallahassee,30.4383,-84.2807,86.86,77,75,1.01,US,1623076546
348,ketchikan,55.3422,-131.6461,46.38,84,100,0.72,US,1623076546
349,fare,-16.7,-151.0167,79.66,77,22,11.18,PF,1623076547
350,placido de castro,-10.3353,-67.1856,88.29,55,48,1.07,BR,1623076547
351,kahului,20.8947,-156.47,76.84,81,1,13.8,US,1623076393
352,kuytun,54.3419,101.5036,51.78,85,67,3.89,RU,1623076547
353,el jicaro,14.9167,-89.9,81.93,74,43,0.76,GT,1623076548
354,marawi,7.9986,124.2928,72.64,93,100,1.9,PH,1623076548
355,fallon,39.4735,-118.7774,65.28,38,1,0.0,US,1623076311
356,flinders,-34.5833,150.8552,58.37,77,100,1.99,AU,1623076548
357,ca mau,9.1769,105.15,80.51,82,100,3.71,VN,1623076426
358,khandbari,27.3747,87.2039,73.42,81,70,4.12,NP,1623076549
359,goderich,43.7501,-81.7165,82.04,65,100,11.5,CA,1623076549
360,hasaki,35.7333,140.8333,66.49,81,85,2.73,JP,1623076549
361,karoi,-16.8099,29.6925,64.26,41,2,7.65,ZW,1623076549
362,nelson bay,-32.7167,152.15,52.68,95,100,7.58,AU,1623076550
363,pangnirtung,66.1451,-65.7125,33.8,93,90,6.91,CA,1623076550
364,shahr-e babak,30.1165,55.1186,92.37,7,0,6.44,IR,1623076550
365,montorio al vomano,42.5831,13.6383,78.35,68,76,5.23,IT,1623076550
366,puerto del rosario,28.5004,-13.8627,74.88,73,20,12.66,ES,1623076551
367,fergus falls,46.283,-96.0776,77.77,37,1,9.22,US,1623076410
368,egvekinot,66.3167,-179.1667,32.88,74,7,3.78,RU,1623076551
369,ballina,-28.8667,153.5667,53.94,96,32,0.0,AU,1623076551
370,bom jesus,-9.0744,-44.3586,91.78,29,99,7.29,BR,1623076552
371,noumea,-22.2763,166.4572,69.01,99,98,8.99,NC,1623076552
372,popondetta,-8.7537,148.2534,72.81,98,100,3.27,PG,1623076552
373,ligayan,4.6533,119.4706,84.52,70,97,4.88,PH,1623076553
374,kruisfontein,-34.0033,24.7314,71.1,28,0,11.41,ZA,1623076553
375,alto araguaia,-17.3147,-53.2153,83.19,39,31,8.08,BR,1623076288
376,alofi,-19.0595,-169.9187,67.89,94,95,1.14,NU,1623076553
377,berlevag,70.8578,29.0864,57.0,66,0,19.57,NO,1623076553
378,ponta do sol,32.6667,-17.1,78.71,68,27,3.51,PT,1623076554
379,soto la marina,23.7667,-98.2167,91.65,43,0,10.45,MX,1623076554
380,te anau,-45.4167,167.7167,41.32,93,24,1.1,NZ,1623076554
381,izumo,35.3667,132.7667,67.95,67,27,5.17,JP,1623076555
382,yar-sale,66.8333,70.8333,42.75,60,100,9.82,RU,1623076555
383,sept-iles,50.2001,-66.3821,55.06,86,75,5.01,CA,1623076555
384,ransang,8.9603,117.5828,80.38,83,100,4.05,PH,1623076555
385,melito di porto salvo,37.9222,15.7714,80.49,41,0,8.34,IT,1623076556
386,clyde river,70.4692,-68.5914,37.63,81,75,17.27,CA,1623076556
387,pandhana,21.7,76.2167,86.7,57,76,7.05,IN,1623076556
388,cap-aux-meules,47.3821,-61.8597,59.05,77,75,20.71,CA,1623076557
389,inongo,-1.95,18.2667,75.04,77,68,1.14,CD,1623076557
390,esperance,-33.8667,121.9,55.24,58,100,15.57,AU,1623076557
391,ilulissat,69.2167,-51.1,57.22,30,1,11.5,GL,1623076557
392,sao miguel do araguaia,-13.275,-50.1628,90.03,29,84,8.97,BR,1623076558
393,rochegda,62.8,43.25,61.97,24,2,6.33,RU,1623076558
394,mamallapuram,12.6264,80.1722,85.05,77,100,10.89,IN,1623076558
395,sibolga,1.7427,98.7792,77.61,82,100,2.71,ID,1623076559
396,portland,45.5234,-122.6762,52.45,87,75,3.0,US,1623076148
397,saint anthony,45.0205,-93.218,83.17,64,1,1.01,US,1623076559
398,ciro marina,39.3732,17.126,82.27,66,20,12.37,IT,1623076559
399,lamu,-2.2717,40.902,75.42,78,100,18.05,KE,1623076559
400,veracruz,19.3333,-96.6667,80.87,53,75,2.39,MX,1623076266
401,vuktyl,63.8567,57.3094,49.3,34,5,9.95,RU,1623076560
402,ikryanoye,46.0932,47.7308,64.38,58,81,21.92,RU,1623076560
403,la ronge,55.1001,-105.2842,53.82,93,75,6.91,CA,1623076561
404,otradnoye,59.7775,30.8181,68.05,52,9,9.28,RU,1623076561
405,kieta,-6.2167,155.6333,77.59,84,84,2.24,PG,1623076561
406,carsamba,41.1989,36.7219,74.95,43,20,3.76,TR,1623076561
407,zhangye,38.9342,100.4517,66.06,44,82,9.28,CN,1623076562
408,half moon bay,37.4636,-122.4286,59.05,77,90,1.01,US,1623076562
409,okha,53.5739,142.9478,36.73,93,100,4.88,RU,1623076562
410,rincon,32.296,-81.2354,84.11,83,75,8.63,US,1623076563
411,bras-panon,-20.9967,55.6782,73.06,75,77,18.59,RE,1623076563
412,patnos,39.2336,42.8634,68.36,31,0,10.2,TR,1623076563
413,dinguiraye,11.3,-10.7167,97.38,27,58,10.25,GN,1623076563
414,margate,51.3813,1.3862,71.46,64,2,7.38,GB,1623076269
415,corovode,40.5042,20.2272,73.26,67,90,7.65,AL,1623076564
416,pacific grove,36.6177,-121.9166,57.15,84,75,1.01,US,1623076564
417,nova venecia,-18.7106,-40.4006,84.83,44,51,2.82,BR,1623076564
418,grindavik,63.8424,-22.4338,51.57,93,75,11.52,IS,1623076565
419,cockburn town,21.4612,-71.1419,84.16,65,40,16.11,TC,1623076565
420,mongoumba,3.6415,18.5936,87.8,49,99,2.84,CF,1623076565
421,subtanjalla,-14.0189,-75.7581,59.54,58,16,4.23,PE,1623076565
422,catuday,16.2923,119.8062,80.64,79,100,10.47,PH,1623076566
423,kismayo,-0.3582,42.5454,78.84,78,82,15.88,SO,1623076566
424,serta,39.8085,-8.0988,85.01,25,0,11.77,PT,1623076566
425,wukari,7.85,9.7833,94.62,42,27,4.27,NG,1623076567
426,vila,42.0304,-8.1588,80.74,54,5,6.44,PT,1623076567
427,trairi,-3.2778,-39.2689,87.91,55,22,10.13,BR,1623076432
428,honningsvag,70.9821,25.9704,46.42,77,53,8.61,NO,1623076567
429,varkaus,62.3153,27.873,71.71,48,35,6.26,FI,1623076568
430,dawson,31.7735,-84.4466,81.82,63,100,10.58,US,1623076568
431,qunduz,36.729,68.857,96.1,16,0,6.29,AF,1623076360
432,bud,39.447,-86.1758,73.58,98,100,7.7,US,1623076568
433,slawno,54.3628,16.6789,68.52,57,0,6.87,PL,1623076569
434,berdigestyakh,62.0989,126.6992,44.71,51,80,4.5,RU,1623076569
435,la union,-5.4,-80.75,73.87,65,87,6.93,PE,1623076569
436,itarema,-2.9248,-39.9167,84.15,69,43,8.5,BR,1623076570
437,laguna,38.421,-121.4238,64.22,63,1,5.01,US,1623076570
438,sao felix do xingu,-6.6447,-51.995,91.4,35,34,6.38,BR,1623076570
439,agadez,19.75,10.25,102.16,8,100,3.6,NE,1623076570
440,venado tuerto,-33.7456,-61.9688,53.89,55,100,7.99,AR,1623076571
441,severo-kurilsk,50.6789,156.125,41.27,97,100,11.9,RU,1623076571
442,kinango,-4.1372,39.3153,80.71,57,63,11.74,KE,1623076571
443,jiamusi,46.8333,130.35,62.11,76,24,6.38,CN,1623076571
444,comodoro rivadavia,-45.8667,-67.5,53.46,50,0,18.41,AR,1623076572
445,hohoe,7.1518,0.4736,89.44,51,49,3.98,GH,1623076572
446,hobyo,5.3505,48.5268,79.99,82,70,27.18,SO,1623076572
447,gornopravdinsk,60.05,69.9,44.44,95,100,10.96,RU,1623076573
448,hofn,64.2539,-15.2082,48.22,93,90,17.27,IS,1623076573
449,sabancuy,18.9667,-91.1833,87.15,60,65,10.89,MX,1623076573
450,brae,60.3964,-1.353,57.11,72,100,6.24,GB,1623076574
451,najran,17.4924,44.1277,101.05,7,42,17.76,SA,1623076574
452,bandar-e lengeh,26.5579,54.8807,95.11,66,0,11.5,IR,1623076574
453,condega,13.365,-86.3985,79.99,59,100,7.54,NI,1623076574
454,taganak,6.0833,118.3,78.94,75,100,6.69,PH,1623076575
455,sambava,-14.2667,50.1667,74.75,71,35,13.98,MG,1623076575
456,filingue,14.3521,3.3168,104.25,20,39,4.03,NE,1623076575
457,mbigou,-1.9005,11.906,75.9,78,84,2.86,GA,1623076576
458,maniitsoq,65.4167,-52.9,39.15,91,91,0.49,GL,1623076576
459,martapura,-3.4167,114.85,80.69,83,88,1.79,ID,1623076576
460,glendive,47.1053,-104.7125,70.43,44,1,14.97,US,1623076576
461,ridgecrest,35.6225,-117.6709,73.65,31,75,5.99,US,1623076577
462,itoman,26.1247,127.6694,79.57,89,75,11.5,JP,1623076577
463,luanda,-8.8368,13.2343,82.4,65,0,9.22,AO,1623076350
464,port-gentil,-0.7193,8.7815,85.96,74,40,10.36,GA,1623076577
465,belaya gora,68.5333,146.4167,47.5,76,100,12.08,RU,1623076578
466,jatiroto,-7.8833,111.1167,73.58,93,21,3.56,ID,1623076578
467,havre-saint-pierre,50.2334,-63.5986,50.59,93,75,11.5,CA,1623076578
468,sarkand,45.41,79.9186,66.34,53,45,4.97,KZ,1623076579
469,jaffna,9.6685,80.0074,84.07,82,75,21.27,LK,1623076579
470,north myrtle beach,33.816,-78.68,82.0,93,90,1.01,US,1623076579
471,bozova,37.3625,38.5267,86.92,12,0,7.87,TR,1623076579
472,hambantota,6.1241,81.1185,82.74,94,75,18.41,LK,1623076580
473,sobolevo,54.4299,31.8996,65.05,77,86,8.25,RU,1623076580
474,mayo,38.8876,-76.5119,89.26,72,100,5.99,US,1623076580
475,chardara,41.2547,67.9692,91.13,19,35,13.29,KZ,1623076581
476,ulaangom,49.9811,92.0667,55.9,42,3,1.59,MN,1623076581
477,ascension,30.2169,-90.9001,84.0,90,90,8.05,US,1623076581
478,reconquista,-29.15,-59.65,57.78,84,100,6.85,AR,1623076581
479,panacan,9.2463,118.4082,80.85,82,100,2.71,PH,1623076582
480,diamantino,-14.4086,-56.4461,90.03,38,46,7.11,BR,1623076293
481,maningrida,-12.0667,134.2667,71.53,88,43,8.66,AU,1623076582
482,maxixe,-23.8597,35.3472,67.75,69,36,7.9,MZ,1623076582
483,aswan,24.0934,32.907,104.85,8,0,15.61,EG,1623076583
484,sur,22.5667,59.5289,89.2,62,0,19.01,OM,1623076583
485,mezhdurechensk,53.6942,88.0603,57.67,76,1,2.55,RU,1623076583
486,paamiut,61.994,-49.6678,38.73,95,100,11.79,GL,1623076583
487,tupik,54.4253,119.9327,53.89,96,19,4.27,RU,1623076584
488,evreux,49.0241,1.1508,73.92,46,0,3.44,FR,1623076584
489,stabat,3.761,98.4513,80.8,94,100,2.35,ID,1623076584
490,kavaratti,10.5669,72.642,83.82,75,66,14.07,IN,1623076585
491,gushikawa,26.3544,127.8686,78.8,85,1,4.74,JP,1623076585
492,lorengau,-2.0226,147.2712,80.35,79,68,4.14,PG,1623076585
493,petropavl,54.8753,69.1628,68.4,49,7,5.97,KZ,1623076586
494,burnie,-41.0667,145.9167,56.59,73,100,19.06,AU,1623076586
495,tual,-5.6667,132.75,81.37,81,43,15.23,ID,1623076586
496,madiun,-7.6298,111.5239,76.93,81,69,5.32,ID,1623076586
497,newport,51.5877,-2.9984,69.19,67,100,10.65,GB,1623076587
498,thoen,17.6129,99.2161,76.53,92,100,3.15,TH,1623076587
499,tay ninh,11.3,106.1,80.46,74,100,4.07,VN,1623076587
500,yelizovo,53.1873,158.3805,42.94,100,90,6.71,RU,1623076588
501,ust-kan,50.9276,84.761,53.38,79,12,3.15,RU,1623076588
502,teya,60.3778,92.6267,39.07,62,30,3.83,RU,1623076588
503,port hedland,-20.3167,118.5667,71.65,64,40,3.44,AU,1623076589
504,san andres,12.5847,-81.7006,84.22,79,40,18.41,CO,1623076401
505,yilan,24.757,121.753,80.37,99,99,2.75,TW,1623076589
506,sampit,-2.5333,112.95,75.22,94,78,2.46,ID,1623076589
507,vila franca do campo,37.7167,-25.4333,70.21,63,90,7.99,PT,1623076589
508,bandikui,27.05,76.5667,102.45,20,79,14.2,IN,1623076590
509,bosobolo,4.1833,19.9,83.82,61,81,2.39,CD,1623076590
510,tiarei,-17.5333,-149.3333,77.0,80,20,13.33,PF,1623076590
511,eenhana,-17.4667,16.3333,80.35,20,4,4.32,NA,1623076591
512,mae sai,20.4335,99.8762,80.44,95,100,1.16,TH,1623076591
513,nantucket,41.2835,-70.0995,78.91,77,1,10.36,US,1623076571
514,grand gaube,-20.0064,57.6608,72.37,82,82,3.0,MU,1623076591
515,ust-tsilma,65.441,52.1498,53.38,31,3,6.73,RU,1623076592
516,solnechnyy,50.7214,136.6319,54.03,86,32,4.52,RU,1623076592
517,calabozo,8.9242,-67.4293,86.54,54,94,7.96,VE,1623076592
518,kaupanger,61.1845,7.2404,75.69,37,20,6.91,NO,1623076592
519,lingao,19.9103,109.6859,79.12,90,96,7.2,CN,1623076593
520,pecos,31.4229,-103.4932,86.09,17,1,11.5,US,1623076593
521,verkhnevilyuysk,63.4453,120.3167,46.69,46,34,3.38,RU,1623076593
522,champerico,14.3,-91.9167,87.73,73,86,6.87,GT,1623076594
523,burias,11.4463,122.5497,77.04,89,100,1.45,PH,1623076594
524,santa marta,11.2408,-74.199,85.33,81,100,2.3,CO,1623076450
525,scottsbluff,41.8666,-103.6672,73.78,53,1,5.99,US,1623076561
526,savinka,50.0785,47.0994,70.72,62,100,6.67,RU,1623076594
527,poya,-21.35,165.15,66.43,75,100,7.4,NC,1623076594
528,bemidji,47.4736,-94.8803,74.17,41,1,3.44,US,1623076595
529,guiglo,6.5456,-7.4966,83.34,69,99,1.86,CI,1623076595
530,fort wayne,41.1306,-85.1289,75.09,84,90,8.5,US,1623076469
531,rio tercero,-32.173,-64.1141,54.48,50,96,6.22,AR,1623076595
532,zermatt,46.0213,7.7491,60.3,100,90,2.01,CH,1623076596
533,harper,4.375,-7.7169,80.8,79,88,11.39,LR,1623076596
534,lichinga,-13.3128,35.2406,64.49,63,40,10.36,MZ,1623076596
535,padang,-0.9492,100.3543,78.06,84,70,4.21,ID,1623076596
536,bali chak,22.3667,87.55,92.19,56,83,11.16,IN,1623076597
537,blackwater,-23.5833,148.8833,55.51,89,0,3.91,AU,1623076574
538,japura,-0.3167,102.35,77.38,82,49,2.21,ID,1623076597
539,nuevo progreso,23.1667,-97.95,86.9,71,6,4.0,MX,1623076597
540,klaksvik,62.2266,-6.589,52.72,88,100,16.44,FO,1623076598
541,languyan,5.2618,120.0807,81.18,80,98,3.0,PH,1623076598
542,lahaina,20.8783,-156.6825,76.8,83,3,6.78,US,1623076598
543,kargopol,61.5071,38.9456,64.51,37,9,7.87,RU,1623076598
544,torbay,47.6666,-52.7314,59.29,70,75,11.5,CA,1623076599
545,aykhal,66.0,111.5,38.16,66,10,8.14,RU,1623076396
546,pedasi,7.5333,-80.0333,78.96,80,100,4.34,PA,1623076599
547,naze,28.3667,129.4833,73.92,88,100,4.83,JP,1623076599
548,jaicos,-7.3592,-41.1378,93.61,30,20,7.09,BR,1623076600
549,aklavik,68.2191,-135.0107,36.32,64,10,9.48,CA,1623076600
550,stokmarknes,68.5646,14.9108,56.5,76,75,9.22,NO,1623076600
551,biak,-0.9131,122.8766,76.3,82,19,5.64,ID,1623076601
552,vagamo,61.8751,9.0967,67.32,50,82,3.44,NO,1623076601
553,anzio,41.4853,12.6179,82.69,66,22,10.69,IT,1623076601
554,along,28.1667,94.7667,73.24,95,99,0.2,IN,1623076602
555,san quintin,30.4833,-115.95,66.43,75,100,3.53,MX,1623076602
556,nanakuli,21.3906,-158.1547,75.15,78,1,12.41,US,1623076602
557,charters towers,-20.1,146.2667,59.23,93,0,7.43,AU,1623076602
558,meulaboh,4.1363,96.1285,78.03,84,100,4.05,ID,1623076603
559,coffs harbour,-30.3,153.1333,57.16,86,67,12.66,AU,1623076318
560,muyuka,4.2898,9.4103,91.0,60,26,3.87,CM,1623076603
561,contamana,-7.3333,-75.0167,73.71,96,100,1.77,PE,1623076603
562,los llanos de aridane,28.6585,-17.9182,67.12,79,75,10.29,ES,1623076604
